stop_id,stop_code,stop_name,stop_lat,stop_lon,zone_id,location_type,parent_station,wheelchair_boarding
1,,вул. Наукова,49.805315,23.982380,1,0,,0
4,,вул. Щирецька,49.809358,23.982811,4,0,,0
5,,вул. Щирецька,49.809631,23.982508,5,0,,0
6,,Скнилівок,49.813249,23.984865,6,0,,0
7,,Скнилівок,49.813576,23.984716,7,0,,0
8,,Кульпарків,49.819345,23.987819,8,0,,0
9,,Кульпарків,49.818543,23.987785,9,0,,0
10,,вул. Антоновича,49.825558,23.990446,10,0,,0
11,,вул. Максима Залізняка,49.829853,23.998148,11,0,,0
12,,вул. Степана Бандери,49.834480,24.006872,12,0,,0
14,,вул. Устияновича,49.836353,24.015867,14,0,,0
15,,Університет ім. Івана Франка,49.839794,24.022354,15,0,,0
16,,вул. Степана Бандери,49.835619,24.005826,16,0,,0
17,,пл. Липнева,49.833405,24.001316,17,0,,0
18,,вул. Смаль-Стоцького,49.830633,23.995478,18,0,,0
19,,вул. Копистинського,49.829167,23.992228,19,0,,0
360,,Автовокзал,49.787581,24.014610,360,0,,0
361,,Автовокзал,49.787323,24.017054,361,0,,0
362,,вул. Михайла Максимовича,49.791456,24.015457,362,0,,0
363,,вул. Михайла Максимовича,49.792500,24.016159,363,0,,0
364,,вул. Скорини,49.797995,24.017359,364,0,,0
365,,вул. Скорини,49.797798,24.016798,365,0,,0
366,,вул. Стрийська - вул. Наукова,49.801411,24.017574,366,0,,0
367,,вул. Стрийська - вул. Хуторівка,49.802592,24.018371,367,0,,0
368,,вул. Івана Рубчака,49.805296,24.018210,368,0,,0
369,,вул. Івана Рубчака,49.805502,24.017763,369,0,,0
370,,вул. Тролейбусна,49.807373,24.007542,370,0,,0
371,,вул. Тролейбусна,49.807940,24.007459,371,0,,0
372,,вул. Володимира Великого,49.810440,24.001222,372,0,,0
373,,"Універмаг ""Океан""",49.810513,23.998134,373,0,,0
374,,"Універмаг ""Океан""",49.810870,23.996756,374,0,,0
375,,вул. Василя Симоненка,49.811158,23.991672,375,0,,0
376,,вул. Василя Симоненка,49.811497,23.990290,376,0,,0
377,,вул. Кульпарківська,49.812354,23.982133,377,0,,0
378,,вул. Кульпарківська,49.812101,23.982125,378,0,,0
379,,вул. Кульчицької,49.816687,23.972498,379,0,,0
380,,вул. Кульчицької,49.817348,23.971472,380,0,,0
381,,вул. Любінська,49.820015,23.969395,381,0,,0
382,,вул. Любінська,49.819630,23.970020,382,0,,0
384,,вул. Кричевського,49.822841,23.965338,384,0,,0
385,,вул. Кричевського,49.822563,23.965690,385,0,,0
386,,"завод ""Лорта""",49.824051,23.955696,386,0,,0
387,,"завод ""Лорта""",49.824303,23.956087,387,0,,0
388,,вул. Ряшівська,49.826971,23.954443,388,0,,0
389,,вул. Ряшівська,49.826837,23.955013,389,0,,0
571,,вул. Володимира Великого,49.809971,24.004592,571,0,,0
572,,Автобусний завод,49.808476,24.019371,572,0,,0
573,,Автобусний завод,49.807844,24.018989,573,0,,0
574,,Податкова,49.815135,24.020077,574,0,,0
575,,Податкова,49.814955,24.019663,575,0,,0
576,,Дитяча залізниця,49.820244,24.020444,576,0,,0
577,,Дитяча залізниця,49.820536,24.020205,577,0,,0
578,,Парк Культури,49.824141,24.020609,578,0,,0
579,,Парк Культури,49.825161,24.022980,579,0,,0
580,,Стрийський ринок,49.829432,24.032263,580,0,,0
581,,Стрийський ринок,49.829826,24.032480,581,0,,0
582,,вул. Шота Руставелі,49.833832,24.035483,582,0,,0
583,,вул. Шота Руставелі,49.834093,24.035321,583,0,,0
584,,вул. Шота Руставелі,49.834150,24.035773,584,0,,0
815,,станція Скнилів,49.822090,23.936327,815,0,,0
816,,вул. Авіаційна,49.824783,23.939415,816,0,,0
817,,Церква Воскресіння Господнього,49.826851,23.946518,817,0,,0
818,,Церква Воскресіння Господнього,49.827030,23.949112,818,0,,0
819,,вул. Вільхова,49.828777,23.957287,819,0,,0
820,,вул. Вільхова,49.828773,23.958370,820,0,,0
821,,вул. Патона,49.823220,23.960577,821,0,,0
822,,вул. Патона,49.822972,23.961421,822,0,,0
823,,вул. Вівсяна,49.829819,23.962954,823,0,,0
824,,вул. Вівсяна,49.829870,23.964616,824,0,,0
825,,Мотозавод,49.830608,23.967394,825,0,,0
826,,Мотозавод,49.830650,23.969151,826,0,,0
827,,вул. Окружна,49.832549,23.978527,827,0,,0
828,,вул. Окружна,49.832544,23.979101,828,0,,0
829,,вул. Народна,49.833427,23.984559,829,0,,0
830,,вул. Народна,49.833771,23.985237,830,0,,0
831,,вул. Смаль-Стоцького,49.835323,23.994919,831,0,,0
832,,"ТРЦ ""Скриня""",49.835602,23.994720,832,0,,0
835,,пл. Кропивницького,49.836441,24.005630,835,0,,0
977,,Аеропорт,49.816887,23.955738,977,0,,0
978,,вул. Кричевського,49.818909,23.963596,978,0,,0
979,,вул. Кричевського,49.819265,23.965152,979,0,,0
980,,вул. Виговського,49.820642,23.968298,980,0,,0
981,,вул. Виговського,49.820835,23.969820,981,0,,0
982,,вул. Караджича,49.822639,23.974497,982,0,,0
983,,вул. Караджича,49.822155,23.972683,983,0,,0
984,,вул. Яворницького,49.823981,23.976722,984,0,,0
985,,вул. Зоряна,49.824895,23.979121,985,0,,0
1428,,вул. Йосипа Сліпого,49.830790,24.043197,1428,0,,0
1429,,вул. Водогінна,49.826292,24.043500,1429,0,,0
1431,,вул. Кримська,49.823897,24.051638,1431,0,,0
1432,,вул. Кримська,49.823476,24.052249,1432,0,,0
1433,,"стадіон ""Україна""",49.822357,24.054464,1433,0,,0
1434,,вул. Дністерська,49.817635,24.059994,1434,0,,0
1435,,вул. Дністерська,49.817753,24.059401,1435,0,,0
1436,,вул. Бузкова,49.813616,24.060373,1436,0,,0
1437,,вул. Бузкова,49.813625,24.060068,1437,0,,0
1438,,Автостанція №5,49.807529,24.061396,1438,0,,0
1439,,вул. Пасічна,49.806080,24.062312,1439,0,,0
1440,,вул. Зубрівська,49.801524,24.065899,1440,0,,0
1442,,вул. Сихівська,49.798153,24.071753,1442,0,,0
1443,,вул. Сихівська,49.796911,24.072440,1443,0,,0
1444,,вул. Вуглецька,49.795676,24.073642,1444,0,,0
1445,,вул. Надійна,49.787409,24.075211,1445,0,,0
1446,,вул. Надійна,49.787853,24.075312,1446,0,,0
1447,,станція Сихів,49.786247,24.075653,1447,0,,0
1448,,станція Сихів,49.786129,24.076428,1448,0,,0
1630,,вул. Сяйво,49.836809,23.976745,1630,0,,0
1631,,вул. Сяйво,49.837587,23.977305,1631,0,,0
1632,,вул. Широка,49.842138,23.978979,1632,0,,0
1633,,вул. Широка,49.842828,23.978782,1633,0,,0
1634,,вул. Олешківська,49.842056,23.973492,1634,0,,0
1635,,вул. Низинна,49.842239,23.971708,1635,0,,0
1636,,Церква Вознесіння,49.841714,23.968567,1636,0,,0
1637,,Церква Вознесіння,49.842208,23.967849,1637,0,,0
1638,,Залізнична поліклініка,49.844550,23.966601,1638,0,,0
1639,,Залізнична поліклініка,49.845577,23.966920,1639,0,,0
1640,,вул. Суботівська,49.847683,23.965361,1640,0,,0
1867,,вул. Зернова,49.846336,24.025148,1867,0,,0
1868,,пл. 700-річчя Львова,49.849586,24.024311,1868,0,,0
1869,,БК ім. Гната Хоткевича,49.851177,24.024429,1869,0,,0
1871,,вул. Хімічна,49.854420,24.022955,1871,0,,0
1872,,вул. Хімічна,49.854259,24.022707,1872,0,,0
1873,,Шевченківська адміністрація,49.856074,24.021731,1873,0,,0
1874,,Шевченківська адміністрація,49.857733,24.021338,1874,0,,0
1875,,Шевченківська адміністрація,49.857833,24.020691,1875,0,,0
1876,,вул. Торф`яна,49.861730,24.018580,1876,0,,0
1877,,вул. Торф`яна,49.862564,24.018702,1877,0,,0
1878,,вул. Варшавська,49.865886,24.016999,1878,0,,0
1879,,вул. Варшавська,49.866459,24.016106,1879,0,,0
1880,,вул. Гетьмана Мазепи,49.869304,24.025031,1880,0,,0
1881,,вул. Гетьмана Мазепи,49.869597,24.025497,1881,0,,0
1882,,вул. Пилипа Орлика,49.870585,24.031456,1882,0,,0
1883,,вул. Пилипа Орлика,49.870491,24.032578,1883,0,,0
1884,,Поліклініка №2,49.871812,24.038945,1884,0,,0
1885,,Поліклініка №2,49.871696,24.039510,1885,0,,0
1886,,вул. Плугова,49.872364,24.043549,1886,0,,0
1887,,вул. Плугова,49.872639,24.043907,1887,0,,0
1888,,вул. Грінченка,49.873325,24.050205,1888,0,,0
2051,,Залізничний вокзал,49.839565,23.995821,2051,0,,0
2053,,Приміський вокзал,49.837664,24.000579,2053,0,,0
2054,,Церква святих Ольги та Єлизавети,49.836571,24.004386,2054,0,,0
2055,,Церква святих Ольги та Єлизавети,49.836248,24.004353,2055,0,,0
2056,,вул. Русових,49.834846,24.006834,2056,0,,0
2057,,вул. Коновальця,49.834816,24.009371,2057,0,,0
2058,,Львівська політехніка,49.834763,24.015154,2058,0,,0
2060,,Головна Пошта,49.836437,24.022356,2060,0,,0
2061,,Головна Пошта,49.836803,24.022001,2061,0,,0
2062,,вул. Петра Дорошенка,49.839714,24.026134,2062,0,,0
2063,,вул. Петра Дорошенка,49.840145,24.027176,2063,0,,0
2065,,пл. Ринок,49.841406,24.032178,2065,0,,0
2066,,вул. Руська,49.841923,24.034868,2066,0,,0
2067,,вул. Руська,49.841911,24.034332,2067,0,,0
2069,,вул. Володимира Шухевича,49.836894,24.034829,2069,0,,0
2071,,вул. Зелена,49.834446,24.034435,2071,0,,0
2072,,вул. Саксаганського,49.834108,24.034178,2072,0,,0
2073,,пл. Івана Франка,49.830574,24.032169,2073,0,,0
2074,,пл. Івана Франка,49.830101,24.031246,2074,0,,0
2075,,Парк Культури,49.830246,24.023870,2075,0,,0
2076,,Парк Культури,49.830238,24.023220,2076,0,,0
2077,,вул. Академіка Сахарова,49.832412,24.017749,2077,0,,0
2078,,вул. Академіка Сахарова,49.832649,24.017155,2078,0,,0
2079,,вул. Київська,49.832279,24.012495,2079,0,,0
2080,,вул. Київська,49.832432,24.011786,2080,0,,0
2081,,вул. Русових,49.834606,24.007417,2081,0,,0
222153_station,,вул. Академіка Сахарова,49.831792,24.017192,222153_station,1,,0
222154_station,,Львівська політехніка,49.834599,24.016065,222154_station,1,,0
222155_station,,вул. Степана Бандери,49.834527,24.016543,222155_station,1,,0
222156_station,,Львівська політехніка,49.834392,24.016049,222156_station,1,,0
222158_station,,вул. Котика,49.837431,24.059667,222158_station,1,,0
222159_station,,Приміський вокзал,49.837702,24.000206,222159_station,1,,0
222209_station,,Привокзальний ринок,49.836464,23.999341,222209_station,1,,0
222210_station,,Привокзальний ринок,49.836125,23.999374,222210_station,1,,0
222289_station,,вул. Василя Симоненка,49.804771,23.987280,222289_station,1,,0
222290_station,,вул. Василя Симоненка,49.805512,23.985890,222290_station,1,,0
222302_station,,вул. Аркаса,49.818258,24.003920,222302_station,1,,0
222303_station,,вул. Аркаса,49.817953,24.003255,222303_station,1,,0
222399_station,,Театр ім. Лесі Українки,49.842307,24.015437,222399_station,1,,0
222400_station,,Церква Анни,49.842836,24.017170,222400_station,1,,0
2438,,вул. Коновальця,49.824387,23.993244,2438,0,,0
2439,,вул. Коновальця,49.824371,23.993031,2439,0,,0
2440,,вул. Гординських,49.826683,23.996946,2440,0,,0
2441,,вул. Гординських,49.826984,23.997225,2441,0,,0
2442,,вул. Максима Залізняка,49.828403,23.999704,2442,0,,0
2443,,вул. Максима Залізняка,49.828979,24.000425,2443,0,,0
2444,,вул. Мельника,49.830666,24.003241,2444,0,,0
2445,,"Палац спорту ""Україна""",49.829983,24.005219,2445,0,,0
2446,,вул. Горбачевського,49.830219,24.007936,2446,0,,0
2447,,Міська лікарня №5,49.830822,24.008854,2447,0,,0
2448,,вул. Київська,49.831959,24.011402,2448,0,,0
2452,,пл. Митна,49.839714,24.037426,2452,0,,0
2453,,пл. Митна,49.839821,24.037905,2453,0,,0
2454,,вул. Чехова,49.840260,24.043135,2454,0,,0
2455,,вул. Чехова,49.840046,24.042749,2455,0,,0
2457,,Обласна клінічна лікарня,49.839970,24.049046,2457,0,,0
2458,,Шевченківський Гай,49.838680,24.053980,2458,0,,0
2459,,Шевченківський Гай,49.838707,24.054398,2459,0,,0
2460,,вул. Котика,49.837189,24.060366,2460,0,,0
2462,,вул. Пасічна,49.835138,24.067884,2462,0,,0
2617,,"ринок ""Південний""",49.813675,23.976862,2617,0,,0
2618,,"ринок ""Південний""",49.813536,23.976617,2618,0,,0
2619,,вул. Окружна,49.827376,23.983153,2619,0,,0
2620,,Аквапарк,49.807148,23.999023,2620,0,,0
2621,,Аквапарк,49.807157,23.998875,2621,0,,0
2622,,вул. Бойчука,49.813019,24.000462,2622,0,,0
2623,,вул. Бойчука,49.813633,24.000879,2623,0,,0
2626,,вул. Шумського,49.822681,24.006603,2626,0,,0
2627,,вул. Шумського,49.822525,24.006630,2627,0,,0
2628,,вул. Івана Горбачевського,49.827164,24.011120,2628,0,,0
2629,,вул. Івана Горбачевського,49.827404,24.011286,2629,0,,0
2631,,Трамвайне депо,49.832062,24.017750,2631,0,,0
2632,,пл. Соборна,49.838123,24.034927,2632,0,,0
2746,,вул. Тор`яна,49.861421,24.026400,2746,0,,0
2747,,вул. Гайдамацька,49.854424,24.028273,2747,0,,0
2748,,БК ім. Гната Хоткевича,49.852295,24.027473,2748,0,,0
2749,,вул. Під Дубом,49.850258,24.026882,2749,0,,0
2751,,пл. Старий Ринок,49.846815,24.028685,2751,0,,0
2752,,пл. Старий Ринок,49.846251,24.029316,2752,0,,0
2753,,вул. Підвальна,49.842734,24.034950,2753,0,,0
2754,,вул. Підвальна,49.842434,24.035181,2754,0,,0
3122,,Трамвайне депо №2,49.858356,24.042770,3122,0,,0
3123,,Трамвайне депо №2,49.857922,24.042765,3123,0,,0
3125,,"Фабрика ""Світанок""",49.862038,24.043833,3125,0,,0
3126,,"Фабрика ""Світанок""",49.862572,24.044192,3126,0,,0
3542,,вул. Під Голоском,49.870571,24.003572,3542,0,,0
3544,,Школа №23,49.865402,24.011114,3544,0,,0
3545,,Школа №23,49.865498,24.011045,3545,0,,0
3546,,"ринок ""Галицьке перехрестя""",49.873693,24.060354,3546,0,,0
3549,,вул. Грінченка,49.868466,24.056344,3549,0,,0
3550,,Автостанція №2,49.865165,24.050964,3550,0,,0
3551,,Автостанція №2,49.864862,24.051683,3551,0,,0
3552,,вул. Липинського - вул. Миколайчука,49.865292,24.043612,3552,0,,0
3554,,БТІ,49.864944,24.040705,3554,0,,0
3555,,БТІ,49.864850,24.042034,3555,0,,0
3556,,вул. Бетховена,49.863457,24.032637,3556,0,,0
3557,,вул. Бетховена,49.863567,24.033533,3557,0,,0
3559,,вул. Замарстинівська,49.860559,24.027664,3559,0,,0
3561,,пр. В`ячеслава Чорновола,49.846617,24.025657,3561,0,,0
3563,,пл. Різні,49.845501,24.026070,3563,0,,0
3564,,пл. Галицька,49.839252,24.032534,3564,0,,0
3741,,"ТЦ ""METRO""",49.821618,23.918417,3741,0,,0
3743,,Торгові центри,49.822711,23.924234,3743,0,,0
3744,,Торгові центри,49.822557,23.925238,3744,0,,0
3745,,вул. Станційна,49.823475,23.930123,3745,0,,0
3746,,вул. Станційна,49.823533,23.928880,3746,0,,0
3747,,Цирк,49.840202,24.012514,3747,0,,0
3748,,Цирк,49.840252,24.012077,3748,0,,0
3749,,Церква святих Ольги та Єлизавети,49.837345,24.004755,3749,0,,0
3750,,пл. Кропивницького,49.837730,24.005587,3750,0,,0
3751,,Театр ім. Лесі Українки,49.841858,24.016497,3751,0,,0
3753,,вул. Театральна,49.844815,24.027795,3753,0,,0
3963,,"ТРЦ ""King Cross Leopolis""",49.774044,24.012466,3963,0,,0
4298,,Стрийський ринок,49.829477,24.032747,4298,0,,0
4303,,"ТРЦ ""Шувар""",49.799084,24.047815,4303,0,,0
4304,,"ТРЦ ""Шувар""",49.798979,24.049038,4304,0,,0
4305,,Дитяча поліклініка №4,49.797158,24.051456,4305,0,,0
4306,,Дитяча поліклініка №4,49.796467,24.053843,4306,0,,0
4307,,Кінотеатр ім. Довженка,49.794699,24.057675,4307,0,,0
4308,,"ТЦ ""ВАМ""",49.791980,24.058257,4308,0,,0
4309,,Поліклініка №4,49.790657,24.059241,4309,0,,0
4310,,Поліклініка №4,49.788750,24.058643,4310,0,,0
4311,,пр. Червоної Калини,49.785503,24.058821,4311,0,,0
4312,,пр. Червоної Калини,49.785142,24.059496,4312,0,,0
4517,,вул. Котика,49.837387,24.060404,4517,0,,0
4520,,вул. Яловець,49.835625,24.075476,4520,0,,0
4521,,Галицька лікарня,49.817679,24.130539,4521,0,,0
4522,,Галицька лікарня,49.817915,24.130433,4522,0,,0
4523,,Винники (вул. Галицька),49.817432,24.144094,4523,0,,0
4524,,Винники (вул. Галицька),49.817278,24.144192,4524,0,,0
4525,,Винники (Кільцева дорога),49.817860,24.157597,4525,0,,0
4526,,Винники (Кільцева дорога),49.817710,24.157869,4526,0,,0
4720,,м/н Рясне-2,49.875440,23.937965,4720,0,,0
4721,,вул. Величковського,49.875317,23.932463,4721,0,,0
4722,,вул. Величковського,49.875145,23.932434,4722,0,,0
4723,,вул. Панаса Сотника,49.872683,23.933203,4723,0,,0
4724,,вул. Панаса Сотника,49.872357,23.933800,4724,0,,0
4725,,вул. Стельмаха,49.870442,23.945509,4725,0,,0
4726,,вул. Стельмаха,49.870460,23.946272,4726,0,,0
4727,,м/н Рясне-1,49.868343,23.950856,4727,0,,0
4728,,м/н Рясне-1,49.868114,23.952616,4728,0,,0
4729,,Промисловий ринок,49.866402,23.956745,4729,0,,0
4730,,Промисловий ринок,49.866462,23.956389,4730,0,,0
4733,,вул. Єрошенка,49.848051,23.999830,4733,0,,0
4734,,вул. Єрошенка,49.848183,23.999844,4734,0,,0
4735,,вул. Турянського,49.846962,24.003250,4735,0,,0
4736,,вул. Турянського,49.847286,24.002569,4736,0,,0
4737,,вул. Ярослава Мудрого,49.844605,24.010710,4737,0,,0
4738,,вул. Ярослава Мудрого,49.844238,24.011215,4738,0,,0
4739,,Янівське кладовище,49.849725,23.994543,4739,0,,0
4740,,Янівське кладовище,49.850262,23.993535,4740,0,,0
4742,,Крупозавод,49.850979,23.991725,4742,0,,0
4743,,вул. Винниця,49.853770,23.985313,4743,0,,0
4744,,вул. Винниця,49.854004,23.984989,4744,0,,0
4745,,вул. Брюховицька,49.860225,23.970185,4745,0,,0
4746,,вул. Брюховицька,49.859850,23.970693,4746,0,,0
4904,,вул. Варшавська - вул. Панча,49.862160,24.007658,4904,0,,0
4908,,вул. Окуневського,49.856230,24.019439,4908,0,,0
4909,,Центр зайнятості,49.803920,23.996401,4909,0,,0
4910,,Центр зайнятості,49.804466,23.995163,4910,0,,0
4911,,вул. Княгині Ольги,49.803977,23.999752,4911,0,,0
4912,,вул. Тролейбусна,49.803430,24.005036,4912,0,,0
4914,,вул. Наукова - вул. Стрийська,49.802103,24.017357,4914,0,,0
4915,,вул. Хуторівка - вул. Стрийська,49.801704,24.018635,4915,0,,0
4916,,Духовна Семінарія,49.799805,24.035449,4916,0,,0
4917,,Духовна Семінарія,49.800196,24.035928,4917,0,,0
4918,,вул. Чукаріна,49.800735,24.040087,4918,0,,0
4919,,вул. Скрипника,49.783100,24.052120,4919,0,,0
5439,,с. Брюховичі,49.904769,23.926662,5439,0,,0
5441,,вул. Івасюка,49.901863,23.940369,5441,0,,0
5442,,вул. Івасюка,49.902011,23.940213,5442,0,,0
5443,,вул. Незалежності України,49.903656,23.939837,5443,0,,0
5444,,вул. Незалежності України,49.904404,23.939296,5444,0,,0
5447,,вул. Пляжна,49.905758,23.957384,5447,0,,0
5448,,вул. Пляжна,49.905616,23.957374,5448,0,,0
5449,,вул. Курортна,49.904346,23.959997,5449,0,,0
5450,,вул. Курортна,49.904488,23.960201,5450,0,,0
5451,,Кладовище,49.897491,23.964136,5451,0,,0
5452,,Кладовище,49.897381,23.963934,5452,0,,0
5453,,Замарстинів,49.871229,24.018575,5453,0,,0
5454,,Замарстинів,49.871305,24.018043,5454,0,,0
5706,,Автостанція №2,49.864135,24.052450,5706,0,,0
5708,,Торговельний центр,49.862286,24.051027,5708,0,,0
5709,,Торговельний центр,49.861927,24.050493,5709,0,,0
5710,,вул. Височана,49.858124,24.047501,5710,0,,0
5711,,вул. Височана,49.858120,24.047256,5711,0,,0
6045,,Залізничний вокзал,49.838867,23.995636,6045,0,,0
6046,,Поліклініка №5,49.826272,23.968002,6046,0,,0
6047,,Поліклініка №5,49.825863,23.967624,6047,0,,0
6321,,вул. Левандівська - вул. Широка,49.843015,23.980556,6321,0,,0
6322,,вул. Левандівська,49.848408,23.993977,6322,0,,0
6323,,вул. Левандівська,49.848450,23.994476,6323,0,,0
6847,,вул. Татарбунарська,49.854159,23.986167,6847,0,,0
6848,,вул. Татарбунарська,49.854103,23.986534,6848,0,,0
6849,,на вимогу,49.862049,23.993895,6849,0,,0
6850,,на вимогу,49.861889,23.992355,6850,0,,0
7227,,вул. Івана Кавалерідзе,49.794521,24.063332,7227,0,,0
7228,,вул. Івана Кавалерідзе,49.794621,24.065155,7228,0,,0
7229,,вул. Сихівська,49.797047,24.071817,7229,0,,0
7230,,вул. Луганська,49.804935,24.062704,7230,0,,0
7231,,Лікарня №8,49.811367,24.050735,7231,0,,0
7232,,Лікарня №8,49.811211,24.050518,7232,0,,0
7233,,вул. Угорська,49.810516,24.045492,7233,0,,0
7234,,вул. Угорська,49.810337,24.045433,7234,0,,0
7235,,вул. Карбишева,49.812259,24.042279,7235,0,,0
7236,,вул. Литвиненка,49.813778,24.042618,7236,0,,0
7237,,Церква Кирила і Мефодія,49.812893,24.038120,7237,0,,0
7238,,вул. Кибальчича,49.814018,24.035610,7238,0,,0
7239,,вул. Кибальчича,49.813770,24.035749,7239,0,,0
7241,,вул. Козельницька,49.816700,24.026630,7241,0,,0
7888,,Русалка Дністрова,49.836910,24.024166,7888,0,,0
7889,,вул. Джорджа Вашингтона,49.816039,24.062737,7889,0,,0
7890,,вул. Джорджа Вашингтона,49.815867,24.063000,7890,0,,0
7891,,Перинатальний центр,49.816145,24.069336,7891,0,,0
7892,,Перинатальний центр,49.815708,24.070388,7892,0,,0
7893,,"ТЦ ""Метро-2""",49.814482,24.076001,7893,0,,0
7894,,"ТЦ ""Метро-2""",49.814430,24.075333,7894,0,,0
7896,,Церква Благовіщення,49.817040,24.077416,7896,0,,0
7897,,Церква Благовіщення,49.818020,24.076559,7897,0,,0
7898,,вул. Ярошинської,49.821828,24.075175,7898,0,,0
7899,,вул. Ярошинської,49.822330,24.075373,7899,0,,0
7900,,вул. Медової Печери,49.826082,24.073425,7900,0,,0
7901,,вул. Медової Печери,49.825950,24.073159,7901,0,,0
7902,,вул. Медової Печери,49.826681,24.072903,7902,0,,0
7903,,вул. Каштанова,49.824686,24.079231,7903,0,,0
7904,,вул. Каштанова,49.824284,24.080023,7904,0,,0
7906,,вул. Майорівка,49.822975,24.084347,7906,0,,0
7907,,вул. Таджицька,49.830105,24.069063,7907,0,,0
7908,,вул. Таджицька,49.830711,24.068632,7908,0,,0
7909,,вул. Пасічна,49.834305,24.067807,7909,0,,0
7911,,Приміський вокзал,49.836285,23.996765,7911,0,,0
8255,,пл. Кропивницького,49.836901,24.005774,8255,0,,0
9083,,вул. Грінченка,49.872893,24.050210,9083,0,,0
9084,,вул. Грінченка,49.872481,24.050791,9084,0,,0
9086,,вул. Богданівська,49.840480,24.085700,9086,0,,0
9087,,вул. Старознесенська,49.848995,24.083223,9087,0,,0
9088,,вул. Старознесенська,49.849056,24.083368,9088,0,,0
9089,,Авторинок,49.854794,24.076021,9089,0,,0
9090,,Авторинок,49.854841,24.076232,9090,0,,0
9091,,вул. Польова,49.856971,24.063627,9091,0,,0
9093,,Церква Пресвятої Богородиці,49.855583,24.053644,9093,0,,0
9094,,Церква Пресвятої Богородиці,49.855518,24.053453,9094,0,,0
9097,,вул. Чигиринська,49.870628,24.055651,9097,0,,0
9098,,вул. Чигиринська,49.870609,24.055217,9098,0,,0
9099,,вул. Грінченка,49.872044,24.052311,9099,0,,0
9100,,Лікарня Швидкої Допомоги,49.875034,24.041412,9100,0,,0
9102,,Лікарня швидкої допомоги,49.876208,24.040742,9102,0,,0
9103,,вул. Щурата,49.879829,24.038145,9103,0,,0
9106,,Івана Кавалерідзе,49.792717,24.065565,9106,0,,0
9107,,на вимогу,49.792582,24.065421,9107,0,,0
9928,,Аквапарк,49.806553,23.999033,9928,0,,0
9929,,Аквапарк,49.807335,23.998653,9929,0,,0
9930,,вул. Бойчука,49.812250,23.999932,9930,0,,0
9931,,вул. Бойчука,49.812855,24.000706,9931,0,,0
9934,,вул. Шумського,49.823105,24.006727,9934,0,,0
9935,,вул. Шумського,49.823738,24.007708,9935,0,,0
9937,,вул. Княгині Ольги,49.826141,24.009308,9937,0,,0
9938,,вул. Академіка Сахарова,49.831646,24.016665,9938,0,,0
9939,,вул. Академіка Сахарова,49.832649,24.018593,9939,0,,0
9940,,вул. Брюховицька,49.860405,23.970827,9940,0,,0
10332,,"Товариство ""Провесінь-агроінвест""",49.842251,24.103924,10332,0,,0
10333,,Кладовище,49.841382,24.096472,10333,0,,0
10334,,Кладовище,49.841259,24.096270,10334,0,,0
10335,,вул. Богданівська,49.840286,24.084869,10335,0,,0
10336,,вул. Богданівська,49.840199,24.085983,10336,0,,0
12396,,вул. Кордуби,49.850974,24.045195,12396,0,,0
12397,,вул. Кордуби,49.850830,24.044943,12397,0,,0
12398,,вул. Заклинських,49.850935,24.049443,12398,0,,0
12399,,вул. Заклинських,49.850792,24.049818,12399,0,,0
13014,,вул. Лінкольна,49.864632,24.028265,13014,0,,0
13015,,вул. Лінкольна,49.864555,24.028414,13015,0,,0
14204,,вул. Руська,49.835487,24.121624,14204,0,,0
14205,,вул. Руська,49.835392,24.121576,14205,0,,0
14206,,на вимогу,49.839863,24.119274,14206,0,,0
14207,,на вимогу,49.839885,24.119081,14207,0,,0
14209,,Шевченківський Гай,49.838480,24.055557,14209,0,,0
14300,,Музей Івана Франка,49.822258,24.032255,14300,0,,0
15569,,вул. Кульчицької,49.817455,23.972651,15569,0,,0
15570,,Стоматологічна клініка №3,49.822079,23.979378,15570,0,,0
15571,,Стоматологічна клініка №3,49.821768,23.979430,15571,0,,0
15714,,с. Білогорща,49.845899,23.929515,15714,0,,0
15717,,вул. Роксоляни,49.843932,23.958584,15717,0,,0
15718,,вул. Роксоляни,49.843990,23.958304,15718,0,,0
15719,,вул. Естонська,49.846901,23.990344,15719,0,,0
15720,,вул. Естонська,49.846859,23.990660,15720,0,,0
16641,,вул. Бахматюка,49.834998,24.083582,16641,0,,0
16642,,вул. Бахматюка,49.834767,24.084329,16642,0,,0
16643,,вул. Дріжджова,49.834146,24.088110,16643,0,,0
16644,,вул. Дріжджова,49.833812,24.088813,16644,0,,0
16645,,Винниківське озеро,49.820655,24.112591,16645,0,,0
16646,,Винниківське озеро,49.820427,24.112669,16646,0,,0
16647,,Винники (вул. Івана Франка),49.808903,24.138176,16647,0,,0
16648,,Винники вул. Івана Франка,49.808835,24.138311,16648,0,,0
17439,,Пульмонологічний центр,49.782856,24.096758,17439,0,,0
17440,,Пульмонологічний центр,49.782948,24.096666,17440,0,,0
17956,,станція Сихів,49.785874,24.076172,17956,0,,0
20136,,станція Персенківка,49.810040,24.030195,20136,0,,0
20137,,станція Персенківка,49.809875,24.030497,20137,0,,0
20138,,вул. Козельницька,49.811378,24.023630,20138,0,,0
21937,,вул. Дунайська,49.816578,24.050754,21937,0,,0
21938,,вул. Дунайська,49.816647,24.050554,21938,0,,0
21939,,вул. Городницька,49.858593,24.026999,21939,0,,0
21940,,вул. Городницька,49.858429,24.027203,21940,0,,0
21942,,вул. Торф`яна,49.862179,24.026667,21942,0,,0
23696,,вул. Антонича,49.785213,24.069595,23696,0,,0
23699,,вул. Миколайчука,49.878769,24.036499,23699,0,,0
25157,,вул. Гайдучка,49.853355,24.077290,25157,0,,0
25158,,вул. Гайдучка,49.852847,24.077534,25158,0,,0
28349,,вул. Татарбунарська,49.854050,23.986864,28349,0,,0
28515,,Театр ляльок,49.844501,24.031475,28515,0,,0
28654,,Сихівське кладовище,49.772400,24.102116,28654,0,,0
29064,,вул. Яловець,49.835809,24.074929,29064,0,,0
29065,,вул. Коломийська,49.787470,24.059378,29065,0,,0
29067,,вул. Трильовського,49.783741,24.067280,29067,0,,0
32211,,вул. Патона,49.823288,23.967605,32211,0,,0
32212,,вул. Шота Руставелі,49.833299,24.035889,32212,0,,0
35217,,вул. Садова,49.823039,23.978264,35217,0,,0
35218,,вул. Ніщинського,49.839349,24.066677,35218,0,,0
35219,,вул. Ніщинського,49.839684,24.066697,35219,0,,0
35220,,вул. Прогулкова,49.844254,24.073824,35220,0,,0
35221,,вул. Прогулкова,49.844078,24.073725,35221,0,,0
35222,,Бізнес центр,49.803478,24.000965,35222,0,,0
35223,,вул. Арктична,49.901270,23.935702,35223,0,,0
35224,,вул. Арктична,49.901115,23.935858,35224,0,,0
35225,,с. Брюховичі (вул. Січових Стрільців),49.917263,23.968369,35225,0,,0
35226,,с. Брюховичі (вул. Січових Стрільців),49.917315,23.968161,35226,0,,0
35229,,Фанерний завод,49.867320,23.967336,35229,0,,0
35230,,Фанерний завод,49.867447,23.967402,35230,0,,0
37043,,Джерело,49.901272,23.959927,37043,0,,0
37044,,Джерело,49.901302,23.960089,37044,0,,0
38113,,с. Дмитровичі,49.772446,24.199989,38113,0,,0
38346,,с. Підберізці,49.806831,24.215015,38346,0,,0
38560,,с. Чишки,49.795113,24.213139,38560,0,,0
38793,,с. Дубляни,49.904432,24.093678,38793,0,,0
38794,,на вимогу,49.904186,24.087627,38794,0,,0
38795,,на вимогу,49.904194,24.087799,38795,0,,0
38796,,на вимогу,49.897505,24.090549,38796,0,,0
38797,,на вимогу,49.897183,24.090503,38797,0,,0
38800,,с. Малехів,49.880741,24.070213,38800,0,,0
38801,,с. Малехів,49.880530,24.070493,38801,0,,0
41639,,с. Муроване,49.875431,24.098576,41639,0,,0
41640,,с. Муроване,49.875275,24.098633,41640,0,,0
41641,,Магазин,49.875988,24.092343,41641,0,,0
41642,,Магазин,49.875887,24.092450,41642,0,,0
41645,,вул. Нова,49.876873,24.066336,41645,0,,0
41646,,вул. Нова,49.876812,24.066763,41646,0,,0
42189,,с. Сороки-Львівські,49.872015,24.134198,42189,0,,0
42191,,на вимогу,49.872748,24.129097,42191,0,,0
42192,,на вимогу,49.872620,24.129164,42192,0,,0
42193,,на вимогу,49.873972,24.109871,42193,0,,0
42194,,на вимогу,49.873870,24.110364,42194,0,,0
42195,,на вимогу,49.873361,24.119035,42195,0,,0
42196,,на вимогу,49.873230,24.119347,42196,0,,0
42816,,на вимогу,49.718731,23.910666,42816,0,,0
42817,,на вимогу,49.718636,23.910650,42817,0,,0
42818,,на вимогу,49.719994,23.907623,42818,0,,0
42819,,на вимогу,49.719863,23.907631,42819,0,,0
42820,,на вимогу,49.722058,23.907242,42820,0,,0
42821,,на вимогу,49.721973,23.907410,42821,0,,0
42822,,на вимогу,49.723232,23.918831,42822,0,,0
42823,,на вимогу,49.723141,23.918873,42823,0,,0
42824,,на вимогу,49.724174,23.924999,42824,0,,0
42825,,на вимогу,49.724072,23.925026,42825,0,,0
42826,,с. Поршна,49.715473,23.952658,42826,0,,0
42827,,с. Поршна,49.715366,23.952702,42827,0,,0
42828,,на вимогу,49.717255,23.988316,42828,0,,0
42829,,на вимогу,49.717159,23.988321,42829,0,,0
42830,,на вимогу,49.715820,23.999619,42830,0,,0
42831,,на вимогу,49.715725,23.999571,42831,0,,0
42832,,с. Липники,49.717462,24.003090,42832,0,,0
42833,,с. Липники,49.717056,24.002645,42833,0,,0
42834,,с. Ков`ярі,49.729576,24.008671,42834,0,,0
42835,,с. Ков`ярі,49.729901,24.009151,42835,0,,0
42836,,с. Солонка,49.757495,24.014668,42836,0,,0
42837,,с. Солонка,49.758136,24.015124,42837,0,,0
43357,,вул. Галицька,49.817159,24.137441,43357,0,,0
43358,,вул. Галицька,49.817076,24.137289,43358,0,,0
44163,,на вимогу,49.873088,24.169750,44163,0,,0
44164,,на вимогу,49.872998,24.170000,44164,0,,0
44165,,на вимогу,49.872884,24.176159,44165,0,,0
44166,,на вимогу,49.872762,24.176459,44166,0,,0
44167,,с. Ямпіль,49.871197,24.198808,44167,0,,0
44168,,с. Ямпіль,49.871082,24.198685,44168,0,,0
44169,,на вимогу,49.869348,24.221129,44169,0,,0
44170,,на вимогу,49.869070,24.221617,44170,0,,0
44171,,на вимогу,49.867097,24.238750,44171,0,,0
44172,,на вимогу,49.866905,24.239016,44172,0,,0
44173,,на вимогу,49.865889,24.264017,44173,0,,0
44174,,на вимогу,49.866144,24.263915,44174,0,,0
44175,,на вимогу,49.864467,24.271638,44175,0,,0
44176,,на вимогу,49.864255,24.271830,44176,0,,0
44177,,с. Борщовичі,49.863861,24.277164,44177,0,,0
45452,,с. Рясне-Руське,49.873661,23.905741,45452,0,,0
45453,,с. Рясне-Руське,49.873556,23.905747,45453,0,,0
46343,,с. Лапаївка,49.811939,23.897217,46343,0,,0
46345,,на вимогу,49.817135,23.895618,46345,0,,0
46346,,на вимогу,49.816924,23.895781,46346,0,,0
46347,,на вимогу,49.817766,23.898609,46347,0,,0
46348,,на вимогу,49.817845,23.899675,46348,0,,0
46349,,с. Зимна Вода,49.819806,23.907557,46349,0,,0
46350,,с. Зимна Вода,49.819823,23.908997,46350,0,,0
47048,,"ТЦ ""Магнус""",49.844383,24.024494,47048,0,,0
47049,,с. Бірки (вул. Петра Сагайдачного),49.915558,23.918314,47049,0,,0
47050,,с. Бірки (вул. Петра Сагайдачного),49.915430,23.918285,47050,0,,0
47051,,на вимогу,49.934170,23.875614,47051,0,,0
47052,,на вимогу,49.934398,23.875759,47052,0,,0
47054,,с. Ясниська,49.919338,23.853664,47054,0,,0
47055,,"Товариство ""Провесінь-агроінвест""",49.842381,24.103888,47055,0,,0
47432,,с. Миклашів,49.833168,24.229725,47432,0,,0
47434,,на вимогу,49.833670,24.221848,47434,0,,0
47435,,на вимогу,49.833458,24.222049,47435,0,,0
47795,,на вимогу,49.826420,23.906847,47795,0,,0
47796,,на вимогу,49.826363,23.906975,47796,0,,0
47797,,на вимогу,49.823845,23.903290,47797,0,,0
47798,,на вимогу,49.823921,23.903177,47798,0,,0
47799,,на вимогу,49.825181,23.894670,47799,0,,0
47800,,на вимогу,49.825344,23.894801,47800,0,,0
47801,,на вимогу,49.824284,23.893688,47801,0,,0
47802,,на вимогу,49.824245,23.893837,47802,0,,0
47803,,на вимогу,49.821140,23.882261,47803,0,,0
47804,,на вимогу,49.820871,23.882277,47804,0,,0
47805,,на вимогу,49.820693,23.878315,47805,0,,0
47806,,на вимогу,49.820825,23.878504,47806,0,,0
47807,,на вимогу,49.823426,23.878447,47807,0,,0
47808,,на вимогу,49.823673,23.878698,47808,0,,0
47809,,на вимогу,49.828584,23.878118,47809,0,,0
47810,,на вимогу,49.828945,23.878351,47810,0,,0
47811,,на вимогу,49.831465,23.876875,47811,0,,0
47812,,на вимогу,49.831367,23.877082,47812,0,,0
47813,,на вимогу,49.832225,23.869485,47813,0,,0
47814,,на вимогу,49.832142,23.869838,47814,0,,0
47816,,с. Суховоля,49.832806,23.863180,47816,0,,0
47817,,вул. Під Дубом,49.850482,24.026299,47817,0,,0
48339,,Сихівське кладовище,49.771542,24.102707,48339,0,,0
48340,,Сихівське кладовище,49.771477,24.102571,48340,0,,0
48341,,с. Давидів (на вимогу),49.759428,24.126867,48341,0,,0
48342,,с. Давидів (на вимогу),49.759514,24.126358,48342,0,,0
48344,,с. Давидів,49.749565,24.138525,48344,0,,0
48345,,на вимогу,49.752384,24.133074,48345,0,,0
49354,,на вимогу,49.828556,23.892926,49354,0,,0
49355,,на вимогу,49.828616,23.893172,49355,0,,0
49356,,на вимогу,49.830585,23.891282,49356,0,,0
49357,,на вимогу,49.830381,23.891709,49357,0,,0
49358,,на вимогу,49.833074,23.886585,49358,0,,0
49359,,на вимогу,49.833029,23.885991,49359,0,,0
49360,,Рудне,49.837200,23.878183,49360,0,,0
49362,,вул. Огієнка,49.834578,23.878989,49362,0,,0
49363,,вул. Огієнка,49.834650,23.878464,49363,0,,0
50033,,вул. Авіаційна,49.821495,23.936024,50033,0,,0
50034,,на вимогу,49.813568,23.930723,50034,0,,0
50035,,на вимогу,49.813599,23.930883,50035,0,,0
50036,,на вимогу,49.810926,23.936193,50036,0,,0
50037,,на вимогу,49.810871,23.936926,50037,0,,0
50038,,на вимогу,49.810474,23.953173,50038,0,,0
50039,,на вимогу,49.810268,23.953054,50039,0,,0
50040,,на вимогу,49.805178,23.951815,50040,0,,0
50041,,на вимогу,49.805091,23.951979,50041,0,,0
50043,,с. Скнилів,49.792630,23.933682,50043,0,,0
50309,,с. Підбірці,49.845963,24.136785,50309,0,,0
50310,,с. Підбірці,49.846050,24.136915,50310,0,,0
50311,,на вимогу,49.843067,24.133257,50311,0,,0
50312,,на вимогу,49.842945,24.133268,50312,0,,0
50313,,на вимогу,49.843674,24.120163,50313,0,,0
50314,,на вимогу,49.843555,24.120216,50314,0,,0
51561,,на вимогу,49.879810,24.061620,51561,0,,0
51562,,на вимогу,49.879903,24.061879,51562,0,,0
51563,,с. Великі Грибовичі (вул. Садова),49.902359,24.056278,51563,0,,0
51564,,с. Великі Грибовичі (вул. Садова),49.901773,24.056196,51564,0,,0
51565,,с. Великі Грибовичі,49.912000,24.053774,51565,0,,0
51566,,с. Великі Грибовичі,49.911612,24.053622,51566,0,,0
51632,,Левандівське Озеро,49.846360,23.985211,51632,0,,0
51633,,Левандівське Озеро,49.846245,23.985382,51633,0,,0
51634,,Притулок для неповнолітніх,49.844602,23.984325,51634,0,,0
51635,,Притулок для неповнолітніх,49.844506,23.983689,51635,0,,0
51636,,пр. Свободи,49.840122,24.028126,51636,0,,0
52419,,"ТЦ ""Магнус""",49.845197,24.023959,52419,0,,0
52811,,"ТРЦ ""King Cross Leopolis""",49.774748,24.014426,52811,0,,0
53359,,вул. Академіка Підстригача,49.802224,24.013239,53359,0,,0
53360,,вул. Академіка Підстригача,49.802407,24.014674,53360,0,,0
53634,,вул. Ковельська,49.859753,24.060167,53634,0,,0
53635,,вул. Кукурудзяна,49.862358,24.060745,53635,0,,0
53636,,вул. Кукурудзяна,49.862491,24.060665,53636,0,,0
74287,,вул. Порічкова,49.864283,23.960066,74287,0,,0
74288,,вул. Порічкова,49.864444,23.960016,74288,0,,0
74289,,вул. Біберовича,49.862924,23.963212,74289,0,,0
74290,,вул. Біберовича,49.862958,23.963559,74290,0,,0
75003,,вул. Окружна,49.826630,23.983524,75003,0,,0
75004,,Шевченківська адміністрація,49.857194,24.022714,75004,0,,0
75006,,Винники (вул. Кільцева),49.822296,24.147028,75006,0,,0
75778,,Винники (вул. Забава),49.802181,24.135277,75778,0,,0
75779,,вул. Пулюя,49.801122,23.989027,75779,0,,0
76732,,"ринок ""Південний""",49.814327,23.975199,76732,0,,0
76733,,вул. Князя Романа,49.837662,24.032959,76733,0,,0
77031,,на вимогу,49.813683,24.134834,77031,0,,0
78616,,вул. Липинського,49.855042,24.014482,78616,0,,0
79249,,на вимогу,49.784241,23.978671,79249,0,,0
79250,,на вимогу,49.784370,23.978818,79250,0,,0
79251,,с. Сокільники,49.782027,23.988873,79251,0,,0
79252,,с. Сокільники,49.782158,23.989101,79252,0,,0
80797,,вул. Ковельська,49.859039,24.059164,80797,0,,0
80798,,вул. Ковельська,49.859336,24.060338,80798,0,,0
80799,,вул. Милятинська,49.857536,24.057272,80799,0,,0
80800,,вул. Милятинська,49.857502,24.057501,80800,0,,0
83053,,на вимогу,49.844743,24.152199,83053,0,,0
83054,,на вимогу,49.844570,24.152224,83054,0,,0
83055,,с. Підбірці,49.844166,24.160511,83055,0,,0
86499,,вул. Січових Стрільців,49.839622,24.023294,86499,0,,0
88648,,вул. Новознесенська,49.855686,24.045473,88648,0,,0
88649,,Голосківське кладовище,49.888452,24.019805,88649,0,,0
88650,,Голосківське кладовище,49.888302,24.020046,88650,0,,0
88655,,с. Збиранка,49.900639,24.018152,88655,0,,0
136637,,вул. Сокільницька,49.784138,24.014429,136637,0,,0
136638,,вул. Сокільницька,49.783291,24.013832,136638,0,,0
137767,,Церква Покрови,49.836143,24.067551,137767,0,,0
143872,,вул. Водогінна,49.827021,24.044872,143872,0,,0
143873,,Львівводоканал,49.829855,24.044475,143873,0,,0
143874,,вул. Липова алея,49.820658,24.055884,143874,0,,0
146536,,на вимогу,49.751820,24.141964,146536,0,,0
146537,,на вимогу,49.747349,24.150240,146537,0,,0
146538,,на вимогу,49.747387,24.150068,146538,0,,0
146539,,на вимогу,49.743458,24.147289,146539,0,,0
146540,,на вимогу,49.743487,24.147081,146540,0,,0
146541,,с. Давидів,49.743801,24.140612,146541,0,,0
150022,,Кільцева дорога,49.873305,24.165415,150022,0,,0
152906,,пл. Святого Теодора,49.846943,24.026450,152906,0,,0
153284,,с. Сокільники,49.784344,23.971611,153284,0,,0
153285,,вул. Кульпарківська,49.783934,23.971022,153285,0,,0
153286,,Кільцева дорога,49.779187,23.966892,153286,0,,0
153287,,Кільцева дорога,49.779900,23.966955,153287,0,,0
153288,,Мототрек,49.774826,23.964243,153288,0,,0
153289,,с. Сокільники,49.772079,23.962713,153289,0,,0
153290,,Мототрек,49.775417,23.964884,153290,0,,0
155570,,вул. Під Голоском,49.870907,24.005325,155570,0,,0
156127,,"ТЦ ""METRO""",49.821635,23.920088,156127,0,,0
157423,,Залізнична поліклініка,49.845108,23.967684,157423,0,,0
157425,,вул. Повітряна,49.844507,23.972259,157425,0,,0
157426,,вул. Олесницького,49.845451,23.978309,157426,0,,0
157427,,вул. Пілотів,49.844383,23.971685,157427,0,,0
157428,,вул. Олесницького,49.845266,23.978182,157428,0,,0
161610,,Автостанція №6,49.835846,24.070717,161610,0,,0
162276,,Автостанція №6,49.836124,24.070476,162276,0,,0
166722,,пр. Червоної Калини,49.784311,24.059967,166722,0,,0
167237,,Мотозавод,49.830063,23.968109,167237,0,,0
167238,,Винники,49.816933,24.136974,167238,0,,0
167239,,Винники,49.816761,24.137199,167239,0,,0
167240,,Винники,49.816480,24.135691,167240,0,,0
167241,,Шевченківський Гай,49.838264,24.055582,167241,0,,0
167242,,Обласна клінічна лікарня,49.840111,24.049031,167242,0,,0
167243,,Обласна клінічна лікарня,49.839813,24.049866,167243,0,,0
167244,,Театр опери та балету,49.844063,24.025633,167244,0,,0
167246,,вул. Зернова,49.846363,24.024723,167246,0,,0
167248,,БК ім. Гната Хоткевича,49.851997,24.027441,167248,0,,0
167249,,вул. Замарстинівська,49.869363,24.018340,167249,0,,0
167250,,вул. Замарстинівська,49.870313,24.020671,167250,0,,0
167251,,"""Весна""",49.869523,24.056770,167251,0,,0
167252,,вул. Замарстинівська,49.859798,24.026199,167252,0,,0
167254,,на вимогу,49.859825,24.043568,167254,0,,0
167260,,вул. Гайдамацька,49.853821,24.028090,167260,0,,0
167261,,"Фабрика ""Динамо""",49.857014,24.027821,167261,0,,0
167262,,вул. Торф`яна,49.861366,24.026758,167262,0,,0
167263,,вул. Тичини,49.868759,24.034001,167263,0,,0
167264,,вул. Тичини,49.868880,24.034143,167264,0,,0
167266,,вул. Хвильового,49.870113,24.042564,167266,0,,0
167267,,вул. Варшавська,49.867261,24.015148,167267,0,,0
167268,,вул. Струмок,49.857864,24.011612,167268,0,,0
167270,,вул. Шевченка,49.861723,23.966617,167270,0,,0
167271,,вул. Шевченка,49.861245,23.967398,167271,0,,0
167272,,Церква Вознесіння,49.841774,23.966759,167272,0,,0
167273,,вул. Лаврівського,49.844990,23.932508,167273,0,,0
167274,,вул. Лаврівського,49.845112,23.932678,167274,0,,0
167275,,вул. Гайовської,49.844894,23.945581,167275,0,,0
167276,,вул. Гайовської,49.844799,23.945593,167276,0,,0
167277,,вул. Білогорща,49.844387,23.937983,167277,0,,0
167278,,вул. Білогорща,49.844490,23.938164,167278,0,,0
167279,,Кільцева дорога,49.820946,23.916109,167279,0,,0
167280,,вул. Кульпарківська,49.834530,23.989849,167280,0,,0
167281,,вул. Городоцька - вул. Кульпарківська,49.834209,23.990938,167281,0,,0
167283,,вул. Тобілевича,49.835939,24.003140,167283,0,,0
167284,,вул. Коновальця,49.834633,24.010110,167284,0,,0
167285,,вул. Мельника,49.831633,24.001237,167285,0,,0
167286,,"Аеропорт (Термінал ""А"")",49.813793,23.960377,167286,0,,0
167287,,"готель ""Тустань""",49.817780,23.959934,167287,0,,0
167290,,Технологічний коледж,49.801160,23.991825,167290,0,,0
167291,,вул. Пулюя,49.804768,23.991900,167291,0,,0
167292,,вул. Пулюя,49.804309,23.992853,167292,0,,0
167293,,вул. Тролейбусна,49.802866,24.006753,167293,0,,0
167294,,Епіцентр,49.824169,23.910160,167294,0,,0
167295,,Епіцентр,49.824486,23.910370,167295,0,,0
167296,,с. Пасіки-Зубрицькі,49.780852,24.088055,167296,0,,0
167297,,с. Пасіки-Зубрицькі,49.780003,24.090050,167297,0,,0
167298,,с. Пасіки-Зубрицькі,49.780743,24.090225,167298,0,,0
167299,,вул. Колодязна,49.790227,24.074248,167299,0,,0
167300,,м/н Старий Сихів,49.792391,24.074510,167300,0,,0
167301,,м/н Старий Сихів,49.793054,24.074341,167301,0,,0
167302,,вул. Сихівська,49.796973,24.072162,167302,0,,0
167303,,вул. Зубрівська,49.802305,24.065415,167303,0,,0
167304,,вул. Симона Петлюри,49.819817,23.980911,167304,0,,0
167305,,вул. Симона Петлюри,49.819790,23.980698,167305,0,,0
167306,,Коледж Зв`язку,49.809978,24.007374,167306,0,,0
167307,,вул. Янева,49.808860,24.012047,167307,0,,0
167308,,Автобусний завод,49.808384,24.017029,167308,0,,0
167309,,вул. Демнянська,49.800370,24.029944,167309,0,,0
167310,,вул. Демнянська,49.800630,24.030390,167310,0,,0
167311,,вул. Рахівська,49.805843,24.045657,167311,0,,0
167312,,"ТРЦ ""King Cross Leopolis""",49.773659,24.013879,167312,0,,0
167313,,Іподром,49.777927,24.014303,167313,0,,0
167314,,вул. Ярослава Гашека,49.794216,24.016006,167314,0,,0
167315,,вул. Ярослава Гашека,49.794639,24.016647,167315,0,,0
167316,,Податкова,49.814613,24.020458,167316,0,,0
167317,,Податкова,49.814636,24.023087,167317,0,,0
167318,,вул. Козельницька,49.816677,24.025787,167318,0,,0
167319,,вул. Козельницька,49.818092,24.025225,167319,0,,0
167320,,РАЦС,49.820389,24.027496,167320,0,,0
167321,,РАЦС,49.820454,24.027351,167321,0,,0
167324,,Стрийський ринок,49.829245,24.032878,167324,0,,0
167326,,вул. Шота Руставелі,49.834190,24.036079,167326,0,,0
167327,,вул. Навроцького,49.812130,24.060758,167327,0,,0
167328,,вул. Навроцького,49.811353,24.061158,167328,0,,0
167329,,вул. Івана Кавалерідзе,49.793713,24.064415,167329,0,,0
167330,,вул. Коломийська - вул. Трильовського,49.787667,24.065942,167330,0,,0
167331,,вул. Коломийська - вул. Трильовського,49.787587,24.066128,167331,0,,0
167332,,вул. Коломийська - вул. Трильовського,49.787533,24.066442,167332,0,,0
167333,,вул. Луганська,49.807701,24.052458,167333,0,,0
167334,,вул. Луганська,49.807775,24.053429,167334,0,,0
167335,,вул. Бойківська,49.823807,24.012197,167335,0,,0
167336,,вул. Бойківська,49.823929,24.012302,167336,0,,0
167338,,вул. Курортна,49.903740,23.960199,167338,0,,0
167339,,"пансіонат ""Львів""",49.907043,23.947641,167339,0,,0
167340,,"пансіонат ""Львів""",49.906876,23.947641,167340,0,,0
167341,,вул. Ягідна,49.902584,23.930975,167341,0,,0
167342,,вул. Ягідна,49.902825,23.930844,167342,0,,0
167343,,вул. Незалежності України,49.901756,23.941587,167343,0,,0
167344,,вул. Незалежності України,49.901779,23.941803,167344,0,,0
167345,,вул. Незалежності України,49.904099,23.940666,167345,0,,0
167346,,пр. Червоної Калини,49.785256,24.059485,167346,0,,0
167347,,пр. Червоної Калини,49.785057,24.059494,167347,0,,0
167348,,пр. Червоної Калини,49.785313,24.059930,167348,0,,0
167349,,пр. Червоної Калини,49.784889,24.059936,167349,0,,0
167350,,пр. Червоної Калини,49.784542,24.059957,167350,0,,0
167352,,Нижній Шувар,49.796564,24.039232,167352,0,,0
167353,,вул. Гната Хоткевича,49.794804,24.044484,167353,0,,0
167533,,Залізничний вокзал,49.839207,23.996239,167533,0,,0
168771,,Поліклініка УМВС,49.873940,24.013517,168771,0,,0
168772,,Поліклініка УМВС,49.873787,24.013536,168772,0,,0
169212,,вул. Івана Франка,49.878429,24.083834,169212,0,,0
169213,,вул. Івана Франка,49.878311,24.083713,169213,0,,0
169430,,вул. Промислова,49.853640,24.041632,169430,0,,0
169431,,вул. Промислова,49.853389,24.041202,169431,0,,0
169632,,вул. Кульпарківська,49.826548,23.989773,169632,0,,0
169651,,вул. Княгині Ольги,49.825832,24.009665,169651,0,,0
170689,,вул. Івана Кавалерідзе,49.794434,24.062902,170689,0,,0
170690,,вул. Івана Кавалерідзе,49.794575,24.063644,170690,0,,0
170691,,Кінотеатр ім. Довженка,49.793983,24.061722,170691,0,,0
171999,,Залізничний вокзал,49.839207,23.994436,171999,0,,0
172128,,вул. Кос-Анатольського,49.791266,24.067461,172128,0,,0
172129,,вул. Кос-Анатольського,49.790651,24.067843,172129,0,,0
172132,,вул. Листопадового Чину,49.840519,24.020628,172132,0,,0
172133,,"ТРЦ ""King Cross Leopolis""",49.774206,24.011692,172133,0,,0
174027,,вул. Новознесенська,49.855579,24.045118,174027,0,,0
174028,,вул. Новознесенська,49.855263,24.045395,174028,0,,0
174030,,вул. Глинянський Тракт,49.842018,24.100952,174030,0,,0
174031,,вул. Глинянський Тракт,49.841908,24.101015,174031,0,,0
174403,,Церква Вознесіння,49.851349,24.059023,174403,0,,0
176955,,на вимогу,49.872219,24.041618,176955,0,,0
184236,,с. Брюховичі (вул. Під Основою),49.922162,23.982459,184236,0,,0
184237,,на вимогу,49.914089,23.965588,184237,0,,0
184239,,смт Брюховичі (вул. Смолиста),49.894688,23.946306,184239,0,,0
184241,,с. Брюховичі (вул. Незалежності України),49.902721,23.941307,184241,0,,0
185531,,вул. Миколайчука,49.865726,24.044356,185531,0,,0
185557,,вул. Грінченка,49.872982,24.050711,185557,0,,0
186287,,пр. Червоної Калини,49.784510,24.059510,186287,0,,0
186288,,пр. Червоної Калини,49.784744,24.059945,186288,0,,0
189487,,Залізничний вокзал,49.838562,23.994822,189487,0,,0
189488,,Залізничний вокзал,49.838650,23.995056,189488,0,,0
189489,,Залізничний вокзал,49.838726,23.995270,189489,0,,0
189490,,Залізничний вокзал,49.838795,23.995455,189490,0,,0
193302,,вул. Митрополита Андрея,49.835678,24.007015,193302,0,,0
193303,,с. Сокільники,49.772121,23.962872,193303,0,,0
193304,,на вимогу,49.754111,23.943197,193304,0,,0
193305,,на вимогу,49.754120,23.943499,193305,0,,0
193306,,с. Малечковичі,49.757774,23.949165,193306,0,,0
193307,,с. Малечковичі,49.757751,23.949375,193307,0,,0
193308,,с. Годовиця,49.760849,23.925648,193308,0,,0
193309,,с. Годовиця,49.760739,23.925571,193309,0,,0
193310,,с. Басівка,49.781059,23.910120,193310,0,,0
193756,,Перехрестя,49.775826,23.915758,193756,0,,0
193757,,Перехрестя,49.775742,23.915691,193757,0,,0
193758,,ж/м Гірка,49.770402,23.918291,193758,0,,0
193759,,ж/м Гірка,49.770275,23.918299,193759,0,,0
193760,,Школа,49.764668,23.920628,193760,0,,0
193761,,Школа,49.764542,23.920539,193761,0,,0
194462,,АЗС,49.892013,24.104240,194462,0,,0
194463,,АЗС,49.891743,24.105099,194463,0,,0
194464,,с. Гамаліївка,49.901348,24.148790,194464,0,,0
194465,,с. Гамаліївка,49.901859,24.149256,194465,0,,0
194466,,с. Вислобоки,49.941711,24.174465,194466,0,,0
194467,,с. Вислобоки,49.941460,24.174332,194467,0,,0
194469,,с. Ременів,49.953048,24.204225,194469,0,,0
194470,,с. Ременів,49.952909,24.204459,194470,0,,0
194471,,с. Жовтанці,49.988335,24.241236,194471,0,,0
194472,,с. Жовтанці,49.988500,24.241984,194472,0,,0
194473,,Будинок №18,49.991459,24.244246,194473,0,,0
194474,,Будинок №58,49.993725,24.234531,194474,0,,0
195584,,Будинок №18,49.991608,24.244230,195584,0,,0
195838,,с. Жовтанці (Кінцева),49.996748,24.216372,195838,0,,0
195839,,Будинок №58,49.993996,24.235292,195839,0,,0
196147,,с. Малі Підліски,49.921036,24.161386,196147,0,,0
196148,,с. Малі Підліски,49.920811,24.160967,196148,0,,0
196848,,с. Гряда,49.933468,24.051073,196848,0,,0
196849,,с. Гряда,49.933083,24.051388,196849,0,,0
196850,,с. Великий Дорошів,49.946526,24.054525,196850,0,,0
196851,,с. Великий Дорошів,49.947010,24.054901,196851,0,,0
196852,,с. Куликів,49.980267,24.076527,196852,0,,0
196853,,с. Куликів,49.980145,24.076916,196853,0,,0
196854,,с. Перемивки,50.007713,24.045923,196854,0,,0
196855,,с. Перемивки,50.009228,24.044502,196855,0,,0
196856,,с. Смереків,50.018074,24.034288,196856,0,,0
196857,,с. Смереків,50.018936,24.032904,196857,0,,0
196858,,с. Сопошин,50.042984,24.005465,196858,0,,0
196859,,с. Сопошин,50.042332,24.005947,196859,0,,0
196860,,м. Жовква (Автостанція),50.057343,23.973957,196860,0,,0
196861,,м. Жовква (Автостанція),50.057434,23.974375,196861,0,,0
196862,,с. Глинськ,50.060722,23.914854,196862,0,,0
196863,,с. Глинськ,50.060913,23.914331,196863,0,,0
196864,,с. Крехів,50.050808,23.819679,196864,0,,0
197181,,с. Деревач,49.666424,24.003029,197181,0,,0
197182,,с. Деревач,49.666630,24.003544,197182,0,,0
197183,,с. Хоросно,49.637998,23.997462,197183,0,,0
197184,,с. Хоросно,49.637306,23.996742,197184,0,,0
197185,,с. Красів,49.617358,23.995578,197185,0,,0
197186,,с. Красів,49.616463,23.994940,197186,0,,0
197187,,с. Бродки,49.600361,24.000608,197187,0,,0
197188,,с. Бродки,49.600815,24.000983,197188,0,,0
197189,,с. Луб`яне,49.580940,23.995832,197189,0,,0
197190,,с. Луб`яне,49.580849,23.995296,197190,0,,0
197191,,с. Заклад,49.556206,23.987583,197191,0,,0
197192,,с. Заклад,49.556595,23.988319,197192,0,,0
197193,,с. Миколаїв,49.523388,23.966202,197193,0,,0
197194,,с. Пісочна,49.452354,23.954718,197194,0,,0
198026,,с. Конопниця,49.811077,23.857284,198026,0,,0
198027,,с. Конопниця,49.811198,23.856970,198027,0,,0
198028,,Дачі,49.809299,23.845917,198028,0,,0
198029,,Дачі,49.809307,23.844666,198029,0,,0
198030,,с. Бартатів,49.804176,23.811911,198030,0,,0
198031,,с. Бартатів,49.803905,23.811300,198031,0,,0
198032,,поворот на Мшану,49.800304,23.788404,198032,0,,0
198033,,поворот на Мшану,49.800789,23.789360,198033,0,,0
198034,,"Автостанція ""Городок""",49.783558,23.643244,198034,0,,0
198035,,"Автостанція ""Городок""",49.783745,23.642771,198035,0,,0
198036,,с. Черляни,49.754528,23.653940,198036,0,,0
198037,,с. Довжанка,49.792721,23.740038,198037,0,,0
198038,,с. Довжанка,49.793118,23.740499,198038,0,,0
199370,,Автостанція №2,49.864073,24.051631,199370,0,,0
199371,,"ринок ""Галицьке перехрестя""",49.875486,24.062276,199371,0,,0
199381,,Автовокзал,49.787029,24.016739,199381,0,,0
199796,,с. Колоденці,50.004230,24.268728,199796,0,,0
199797,,с. Колоденці,50.004108,24.267952,199797,0,,0
199798,,с. Германка,50.011234,24.281052,199798,0,,0
199799,,с. Германка,50.011456,24.281845,199799,0,,0
199800,,с. Честині,50.028744,24.313967,199800,0,,0
199801,,с. Честині,50.028076,24.313431,199801,0,,0
199802,,с. Новий Став,50.048729,24.331402,199802,0,,0
199803,,с. Новий Став,50.047970,24.331928,199803,0,,0
199804,,с. Дернів,50.074120,24.332935,199804,0,,0
199805,,с. Дернів,50.073627,24.333344,199805,0,,0
199806,,с. Сапіжанка,50.082626,24.332947,199806,0,,0
199807,,с. Сапіжанка,50.082073,24.332474,199807,0,,0
199808,,с. Кам`янка-Бузька (вул. Хомина),50.110223,24.343714,199808,0,,0
200251,,с. Лісопотік,49.925489,23.896726,200251,0,,0
200252,,с. Лісопотік,49.925018,23.897574,200252,0,,0
200560,,с. Наварія,49.749577,23.932928,200560,0,,0
200561,,с. Наварія,49.749512,23.933477,200561,0,,0
201173,,с. Басівка,49.780849,23.910488,201173,0,,0
201174,,с. Стоділки,49.751419,23.620617,201174,0,,0
201175,,с. Стоділки,49.751598,23.621035,201175,0,,0
201176,,с. Угри,49.729313,23.611368,201176,0,,0
201533,,Автостанція №8,49.839939,23.995456,201533,0,,0
201534,,Янівське кладовище,49.850606,23.992860,201534,0,,0
201535,,с. Страдч,49.897827,23.770552,201535,0,,0
201536,,с. Страдч,49.898243,23.770229,201536,0,,0
201537,,с. Івано-Франкове,49.920216,23.734631,201537,0,,0
201538,,с. Івано-Франкове,49.920448,23.735092,201538,0,,0
201539,,Новояворівськ,49.932560,23.566769,201539,0,,0
201540,,Новояворівськ,49.932331,23.566629,201540,0,,0
201542,,с. Шкло,49.956917,23.544401,201542,0,,0
201950,,с. Дубляни,49.889654,24.090434,201950,0,,0
201951,,с. Дубляни,49.890047,24.090977,201951,0,,0
201952,,с. Малі Підліски,49.920025,24.160528,201952,0,,0
201953,,с. Малі Підліски,49.919498,24.160633,201953,0,,0
201954,,с. Запитів (Кінець),49.916847,24.222595,201954,0,,0
201955,,с. Запитів (Кінець),49.916676,24.223003,201955,0,,0
201956,,с. Запитів (Початок),49.918697,24.187286,201956,0,,0
201957,,с. Запитів (Початок),49.918518,24.187561,201957,0,,0
201958,,с. Старий Яричів,49.914070,24.271141,201958,0,,0
201959,,с. Старий Яричів,49.914047,24.271770,201959,0,,0
201960,,с. Новий Яричів,49.907449,24.302876,201960,0,,0
202386,,с. Мшана,49.828898,23.782008,202386,0,,0
202387,,с. Мшана,49.829109,23.781905,202387,0,,0
202388,,с. Залужжя,49.839886,23.759897,202388,0,,0
202389,,с. Залужжя,49.840157,23.759705,202389,0,,0
202390,,с. Повітно,49.837257,23.731176,202390,0,,0
202391,,с. Повітно,49.836784,23.729610,202391,0,,0
204331,,на вимогу,49.838459,24.080639,204331,0,,0
204332,,на вимогу,49.838230,24.079735,204332,0,,0
205400,,с. Куликів,49.979595,24.078451,205400,0,,0
205401,,с. Куликів,49.979473,24.078468,205401,0,,0
205402,,с. Надичі,49.977066,24.090345,205402,0,,0
205403,,с. Надичі,49.977036,24.090025,205403,0,,0
205404,,с. Гребінці,49.975780,24.113010,205404,0,,0
205405,,с. Гребінці,49.975948,24.112772,205405,0,,0
205406,,с. Виднів,49.968472,24.142212,205406,0,,0
205407,,с. Виднів,49.968235,24.142300,205407,0,,0
207452,,Автостанція №6,49.836007,24.071201,207452,0,,0
207453,,вул. Кульпарківська,49.834461,23.990053,207453,0,,0
222125,,пл. Митна,49.839718,24.037067,222125,0,,0
222129,,на вимогу,49.834334,24.020048,222129,0,,0
222131,,вул. Лінкольна,49.866683,24.041653,222131,0,,0
222132,,вул. Лінкольна,49.866535,24.041680,222132,0,,0
222138,,вул. Збиральна,49.822864,23.918706,222138,0,,0
222140,,смт Брюховичі (вул. Смолиста),49.894742,23.946623,222140,0,,0
222141,,вул. Медової Печери,49.826379,24.073639,222141,0,,0
222142,,вул. Коломийська - вул. Трильовського,49.787540,24.066249,222142,0,,0
222144,,пр. Червоної Калини,49.785090,24.059930,222144,0,,0
222145,,вул. Малковицька,49.873871,23.951539,222145,0,,0
222146,,вул. Малковицька,49.873780,23.951053,222146,0,,0
222147,,на вимогу,49.871434,23.964518,222147,0,,0
222148,,на вимогу,49.871496,23.963684,222148,0,,0
222149,,Приміський вокзал,49.836400,23.997864,222149,0,,0
222150,,Приміський вокзал,49.836389,23.997518,222150,0,,0
222152,,с. Сулимів,49.964089,24.160687,222152,0,,0
222153,,вул. Академіка Сахарова,49.831792,24.017192,222153,0,222153_station,0
222154,,Львівська політехніка,49.834599,24.016065,222154,0,222154_station,0
222155,,вул. Степана Бандери,49.834527,24.016543,222155,0,222155_station,0
222156,,Львівська політехніка,49.834392,24.016049,222156,0,222156_station,0
222158,,вул. Котика,49.837431,24.059667,222158,0,222158_station,0
222159,,Приміський вокзал,49.837702,24.000206,222159,0,222159_station,0
222161,,на вимогу,49.809386,23.988374,222161,0,,0
222163,,смт Брюховичі (вул. Смолиста),49.895094,23.946089,222163,0,,0
222164,,на вимогу,49.914007,23.965395,222164,0,,0
222165,,на вимогу,49.776775,24.013860,222165,0,,0
222166,,на вимогу,49.813998,23.981451,222166,0,,0
222167,,на вимогу,49.814033,23.981000,222167,0,,0
222168,,на вимогу,49.800471,24.040698,222168,0,,0
222169,,вул. Городоцька - вул. Кульпарківська,49.834017,23.990679,222169,0,,0
222170,,на вимогу,49.783808,24.013426,222170,0,,0
222174,,Винники (вул. Ломоносова),49.809337,24.120371,222174,0,,0
222175,,Винники (вул. Козацька),49.802752,24.129316,222175,0,,0
222176,,Винники вул. Козацька,49.802503,24.129667,222176,0,,0
222177,,на вимогу,49.805851,24.120770,222177,0,,0
222178,,на вимогу,49.805837,24.120947,222178,0,,0
222179,,Винники вул. Забава,49.802359,24.135005,222179,0,,0
222180,,на вимогу,49.808119,23.837127,222180,0,,0
222181,,на вимогу,49.808077,23.838208,222181,0,,0
222184,,с. Керниця,49.782598,23.761926,222184,0,,0
222185,,с. Керниця (Центр),49.782324,23.745672,222185,0,,0
222186,,с. Керниця (Центр),49.782237,23.746133,222186,0,,0
222187,,на вимогу,49.782248,23.742152,222187,0,,0
222188,,на вимогу,49.782424,23.741911,222188,0,,0
222189,,на вимогу,49.822231,23.983616,222189,0,,0
222190,,на вимогу,49.822324,23.983630,222190,0,,0
222192,,пр. В`ячеслава Чорновола,49.845381,24.025083,222192,0,,0
222195,,вул. Коломийська,49.788075,24.061081,222195,0,,0
222196,,вул. Київська,49.832422,24.012146,222196,0,,0
222197,,"ТЦ ""Три Слони""",49.830983,23.907006,222197,0,,0
222202,,с. Пісочна,49.455501,23.955498,222202,0,,0
222203,,с. Миколаїв,49.523396,23.965747,222203,0,,0
222205,,"ТРЦ ""Скриня""",49.835405,23.994664,222205,0,,0
222206,,"ТРЦ ""Скриня""",49.835497,23.994843,222206,0,,0
222209,,Привокзальний ринок,49.836464,23.999341,222209,0,222209_station,0
222210,,Привокзальний ринок,49.836125,23.999374,222210,0,222210_station,0
222216,,вул. Городоцька,49.843212,24.022808,222216,0,,0
222217,,вул. Лесі Українки,49.839814,23.886884,222217,0,,0
222218,,вул. Лесі Українки,49.839868,23.887378,222218,0,,0
222219,,Рудне,49.836445,23.878347,222219,0,,0
222222,,вул. Володимира Великого,49.835837,23.875922,222222,0,,0
222224,,на вимогу,49.837394,23.884918,222224,0,,0
222225,,Народний дім,49.837061,23.873232,222225,0,,0
222226,,Народний дім,49.837204,23.873366,222226,0,,0
222227,,Духовна Семінарія,49.842587,23.860593,222227,0,,0
222228,,вул. Шевченка,49.840278,23.865531,222228,0,,0
222229,,вул. Шевченка,49.840418,23.865499,222229,0,,0
222230,,вул. Лисенка,49.838642,23.864153,222230,0,,0
222231,,вул. Лисенка,49.838294,23.863713,222231,0,,0
222232,,на вимогу,49.838015,23.868377,222232,0,,0
222233,,на вимогу,49.838133,23.868088,222233,0,,0
222234,,вул. Володимира Великого,49.835927,23.876164,222234,0,,0
222235,,"ТЦ ""Магнус""",49.844025,24.024273,222235,0,,0
222236,,Дитячий диспансер,49.877443,24.004258,222236,0,,0
222237,,Дитячий диспансер,49.877439,24.003990,222237,0,,0
222241,,Пустомити,49.716962,23.907690,222241,0,,0
222242,,вул. Радоцинська,49.715738,23.911622,222242,0,,0
222243,,вул. Радоцинська,49.716213,23.911649,222243,0,,0
222244,,вул. Зиновія Бабія,49.710507,23.911400,222244,0,,0
222245,,вул. Шухевича,49.711925,23.912046,222245,0,,0
222246,,вул. Грушевського,49.719045,23.904472,222246,0,,0
222247,,вул. Грушевського,49.718890,23.904324,222247,0,,0
222248,,вул. Олеся Гончара,49.721857,23.902691,222248,0,,0
222249,,вул. Олеся Гончара,49.721367,23.902838,222249,0,,0
222250,,вул. Глинська,49.726050,23.899558,222250,0,,0
222251,,вул. Глинська,49.726277,23.899528,222251,0,,0
222252,,станція Пустомити,49.714846,23.909069,222252,0,,0
222253,,станція Пустомити,49.714886,23.908900,222253,0,,0
222254,,Парк,50.103976,24.346433,222254,0,,0
222255,,Міст,50.099606,24.343590,222255,0,,0
222258,,Автостанція,50.105559,24.338000,222258,0,,0
222259,,Міст,50.099878,24.343954,222259,0,,0
222260,,вул. Академіка Сахарова,49.820352,24.019074,222260,0,,0
222262,,Приміський вокзал,49.837576,23.999875,222262,0,,0
222263,,Шевченківський Гай,49.842371,24.069385,222263,0,,0
222264,,Шевченківський Гай,49.842332,24.069028,222264,0,,0
222265,,Кредобанк,49.821574,24.016505,222265,0,,0
222266,,Кардіологічний центр,49.830800,23.990702,222266,0,,0
222267,,Центр зайнятості,49.802410,23.992070,222267,0,,0
222268,,"ТЦ ""ВАМ""",49.871051,24.057945,222268,0,,0
222271,,вул. Городницька,49.864059,24.044443,222271,0,,0
222273,,вул. Раковського,49.814450,24.050853,222273,0,,0
222275,,вул. Степана Бандери,49.834588,24.014265,222275,0,,0
222278,,Школа-інтернат,49.913361,23.925776,222278,0,,0
222279,,Школа-інтернат,49.913494,23.925873,222279,0,,0
222281,,вул. Винниченка,49.819265,24.137097,222281,0,,0
222282,,вул. Винниченка,49.819559,24.137285,222282,0,,0
222283,,вул. Винна Гора,49.823612,24.136928,222283,0,,0
222284,,вул. Лісна,49.823100,24.136904,222284,0,,0
222285,,на вимогу,49.801059,23.950118,222285,0,,0
222286,,на вимогу,49.800930,23.949629,222286,0,,0
222287,,на вимогу,49.797450,23.944230,222287,0,,0
222288,,на вимогу,49.796986,23.943197,222288,0,,0
222289,,вул. Василя Симоненка,49.804771,23.987280,222289,0,222289_station,0
222290,,вул. Василя Симоненка,49.805512,23.985890,222290,0,222290_station,0
222292,,"ринок ""Галицьке перехрестя""",49.874362,24.061732,222292,0,,0
222293,,на вимогу,50.055778,23.982194,222293,0,,0
222294,,на вимогу,50.054129,23.986923,222294,0,,0
222295,,на вимогу,50.048090,23.997349,222295,0,,0
222296,,на вимогу,50.047648,23.997652,222296,0,,0
222297,,на вимогу,50.055527,23.982867,222297,0,,0
222298,,пл. 700-річчя Львова,49.849276,24.025101,222298,0,,0
222302,,вул. Аркаса,49.818258,24.003920,222302,0,222302_station,0
222303,,вул. Аркаса,49.817953,24.003255,222303,0,222303_station,0
222304,,на вимогу,49.751268,24.015094,222304,0,,0
222305,,на вимогу,49.750991,24.014536,222305,0,,0
222306,,на вимогу,49.795377,24.190698,222306,0,,0
222307,,на вимогу,49.795460,24.190012,222307,0,,0
222308,,на вимогу,49.795202,24.204656,222308,0,,0
222309,,на вимогу,49.795365,24.204528,222309,0,,0
222310,,на вимогу,49.796561,24.181935,222310,0,,0
222311,,на вимогу,49.796695,24.181903,222311,0,,0
222312,,вул. Лесі Українки,49.798030,24.175214,222312,0,,0
222313,,вул. Лесі Українки,49.798218,24.174736,222313,0,,0
222316,,на вимогу,49.783822,24.149486,222316,0,,0
222317,,на вимогу,49.783851,24.149239,222317,0,,0
222318,,на вимогу,49.785983,24.146635,222318,0,,0
222319,,на вимогу,49.786401,24.146581,222319,0,,0
222320,,на вимогу,49.788803,24.145090,222320,0,,0
222321,,на вимогу,49.788297,24.145876,222321,0,,0
222322,,на вимогу,49.779373,24.160749,222322,0,,0
222323,,на вимогу,49.779641,24.159856,222323,0,,0
222324,,на вимогу,49.789353,24.141327,222324,0,,0
222325,,на вимогу,49.789111,24.141362,222325,0,,0
222326,,на вимогу,49.797941,24.167127,222326,0,,0
222327,,на вимогу,49.798068,24.167052,222327,0,,0
222328,,на вимогу,49.799224,24.157458,222328,0,,0
222329,,на вимогу,49.799153,24.157181,222329,0,,0
222330,,на вимогу,49.810227,24.220693,222330,0,,0
222331,,на вимогу,49.810194,24.220248,222331,0,,0
222332,,с. Підгірне,49.815376,24.201285,222332,0,,0
222333,,на вимогу,49.816222,24.178902,222333,0,,0
222334,,с. Підгірне,49.815489,24.203648,222334,0,,0
222335,,на вимогу,49.816022,24.178215,222335,0,,0
222336,,на вимогу,49.869643,23.966152,222336,0,,0
222337,,на вимогу,49.869996,23.965666,222337,0,,0
222338,,Школа,49.872730,23.957456,222338,0,,0
222339,,Школа,49.872729,23.958167,222339,0,,0
222340,,вул. Смолича,49.877515,23.948640,222340,0,,0
222341,,вул. Смолича,49.877920,23.948269,222341,0,,0
222342,,на вимогу,49.834467,24.211164,222342,0,,0
222343,,на вимогу,49.834761,24.210166,222343,0,,0
222344,,на вимогу,49.839913,24.167315,222344,0,,0
222345,,на вимогу,49.839804,24.166907,222345,0,,0
222346,,на вимогу,49.883990,24.075868,222346,0,,0
222347,,на вимогу,49.883865,24.075355,222347,0,,0
222348,,на вимогу,49.810466,23.945630,222348,0,,0
222349,,на вимогу,49.810528,23.944756,222349,0,,0
222350,,на вимогу,49.741963,24.015373,222350,0,,0
222351,,на вимогу,49.907507,24.292582,222351,0,,0
222352,,на вимогу,49.907250,24.294020,222352,0,,0
222353,,на вимогу,49.908982,24.280861,222353,0,,0
222354,,на вимогу,49.909018,24.281507,222354,0,,0
222355,,на вимогу,49.917180,24.210281,222355,0,,0
222356,,на вимогу,49.917387,24.210171,222356,0,,0
222357,,на вимогу,49.917105,24.200529,222357,0,,0
222358,,на вимогу,49.917311,24.199815,222358,0,,0
222359,,с. Лисиничі,49.834555,24.126422,222359,0,,0
222360,,с. Лисиничі,49.834294,24.126599,222360,0,,0
222361,,на вимогу,49.832450,24.130735,222361,0,,0
222362,,на вимогу,49.832201,24.130928,222362,0,,0
222365,,Комарно,49.626207,23.693036,222365,0,,0
222366,,смт Великий Любінь,49.722215,23.738330,222366,0,,0
222367,,смт Великий Любінь,49.722253,23.738593,222367,0,,0
222368,,с. Оброшине,49.786761,23.865633,222368,0,,0
222369,,с. Оброшине,49.786673,23.865303,222369,0,,0
222370,,с. Ставчани,49.769269,23.840445,222370,0,,0
222371,,с. Ставчани,49.768917,23.841105,222371,0,,0
222372,,с. Підгайці,49.758442,23.800576,222372,0,,0
222373,,с. Підгайці,49.758484,23.799954,222373,0,,0
222374,,с. Любовичі,49.751135,23.780672,222374,0,,0
222375,,с. Любовичі,49.751147,23.781369,222375,0,,0
222376,,на вимогу,49.695578,23.731872,222376,0,,0
222377,,на вимогу,49.695696,23.732333,222377,0,,0
222378,,с. Бірче,49.689283,23.731813,222378,0,,0
222379,,с. Бірче,49.689217,23.731547,222379,0,,0
222380,,с. Чуловичі,49.664239,23.736579,222380,0,,0
222381,,с. Чуловичі,49.664197,23.736450,222381,0,,0
222382,,с. Якимчиці,49.642540,23.736750,222382,0,,0
222383,,с. Якимчиці,49.642436,23.736364,222383,0,,0
222384,,с. Кліцько,49.629366,23.721768,222384,0,,0
222385,,с. Кліцько,49.629453,23.721950,222385,0,,0
222386,,вул. Львівська,49.838171,24.120333,222386,0,,0
222387,,вул. Львівська,49.837865,24.120360,222387,0,,0
222388,,на вимогу,49.811920,23.893338,222388,0,,0
222389,,на вимогу,49.811362,23.893102,222389,0,,0
222390,,Обласний госпіталь та реабілітарій,49.826384,24.135783,222390,0,,0
222391,,Автостанція №6,49.836016,24.069830,222391,0,,0
222392,,Музей Івана Франка,49.822148,24.032502,222392,0,,0
222393,,Обласний госпіталь та реабілітарій,49.826586,24.135472,222393,0,,0
222394,,вул. Скрипника,49.786686,24.051733,222394,0,,0
222395,,на вимогу,49.783550,24.052087,222395,0,,0
222396,,на вимогу,49.783841,24.052264,222396,0,,0
222397,,пл. Івана Підкови,49.841309,24.027896,222397,0,,0
222398,,вул. Окружна,49.827296,23.982545,222398,0,,0
222399,,Театр ім. Лесі Українки,49.842307,24.015437,222399,0,222399_station,0
222400,,Церква Анни,49.842836,24.017170,222400,0,222400_station,0
222401,,Нижній Шувар,49.797936,24.039084,222401,0,,0
222402,,вул. Чукаріна,49.798075,24.043552,222402,0,,0
222403,,вул. Чукаріна,49.797957,24.043662,222403,0,,0
222404,,на вимогу,49.808513,24.044467,222404,0,,0
222405,,на вимогу,49.808159,24.041460,222405,0,,0
222408,,Стрийський парк,49.825989,24.033355,222408,0,,0
222409,,Стрийський парк,49.826766,24.033751,222409,0,,0
222410,,вул. Наукова - Кульпарківська,49.804833,23.981030,222410,0,,0
222411,,вул. Енергетична,49.815641,24.030554,222411,0,,0
222412,,вул. Енергетична,49.815606,24.030082,222412,0,,0
222413,,вул. Наукова - Кульпарківська,49.804661,23.981278,222413,0,,0
222414,,Протезний завод,49.836605,23.968531,222414,0,,0
222415,,с. Бірки (вул. Богдана Хмельницького),49.915164,23.922772,222415,0,,0
222416,,с. Бірки (вул. Богдана Хмельницького),49.915382,23.922697,222416,0,,0
222417,,с. Малий Любінь,49.715160,23.748724,222417,0,,0
222418,,с. Малий Любінь,49.715242,23.748866,222418,0,,0
222419,,с. Великі Грибовичі,49.910260,24.069538,222419,0,,0
222420,,с. Бірки,49.917325,23.913487,222420,0,,0
222421,,с. Великі Грибовичі (на вимогу),49.911331,24.055048,222421,0,,0
222422,,с. Великі Грибовичі (на вимогу),49.911457,24.055177,222422,0,,0
222423,,на вимогу,49.828010,24.071200,222423,0,,0
222424,,на вимогу,49.706318,23.998920,222424,0,,0
222425,,на вимогу,49.705922,23.998851,222425,0,,0
222426,,с. Раковець,49.656091,24.001758,222426,0,,0
222427,,с. Раковець,49.655551,24.001063,222427,0,,0
222428,,вул. Вахнянина,49.828889,24.056341,222428,0,,0
222429,,вул. Левицького,49.830438,24.049198,222429,0,,0
222430,,вул. Левицького,49.830286,24.049233,222430,0,,0
222431,,на вимогу,49.832443,24.043472,222431,0,,0
222432,,на вимогу,49.835156,24.038392,222432,0,,0
222433,,пл. Святого Юра,49.836989,24.012809,222433,0,,0
222434,,ДОК,49.908720,23.931098,222434,0,,0
222435,,ДОК,49.908442,23.931085,222435,0,,0
